<?xml version="1.0" encoding="UTF-8"?>
<kml xmlns="http://www.opengis.net/kml/2.2">
  <Document>
    <name>MacDive</name>
    <Folder>
    <name>All Sites</name>
      <Placemark>
        <name>M/V Captain Keith Tibbetts</name>
        <description><![CDATA[Approx depth:

Stern: 45ft

Bow: 85ft

Wall: 100+ft – wreck, main wall

Sunk as an artificial reef in September 1996, the M/V Captain Keith Tibbetts is found near the Buccaneer wreck in a large sandy area near the wall. Broken in half due to a stress fracture upon impact, the bow lies on its port side and faces the wall in about 80ft. The stern sits gently upright in shallower water and the innards of the ship are exposed in the middle as every year storms pull it gently further and further apart. A resident goliath grouper and turtle can often be found around or inside the wreck, a school of reflective glassy sweepers take residence in the control room and protective male sergeant majors aggressively protect eggs laid on the radio tower.

Built in Russia in 1984, the #356 was given to the Cuban government, who in turn sold it to the Cayman Islands in the mid-1990s. Jean-Michel Cousteau was present for the sinking of the wreck in 1996, which took several hours to finally reach bottom! A geocache was recently placed on the wreck, and makes for a good hunt while exploring the wreck. There are also two popular penetration swims through the sunken ship; however, be sure to follow an experienced dive master before attempting yourself!

https://www.cita.ky/capt-keith-tibbetts]]></description>
        <Point>
          <coordinates>-79.884650,19.694667</coordinates>
        </Point>
      </Placemark>
      <Placemark>
        <name>Ann's Attic</name>
        <description><![CDATA[https://www.wannadive.net/spot/Central_America/Cayman/Little_Cayman/Ann_s_Attic/index.html?wdaction=lib.WDPageSpot.showGPShistory]]></description>
        <Point>
          <coordinates>-80.078333,19.684667</coordinates>
        </Point>
      </Placemark>
      <Placemark>
        <name>Baracuda Bight</name>
        <description></description>
        <Point>
          <coordinates>-80.091420,19.682890</coordinates>
        </Point>
      </Placemark>
      <Placemark>
        <name>Cumber’s Caves</name>
        <description><![CDATA[Cumber’s Caves Located in the Jackson Bight, Cumber’s Caves is the most popular shore dive in Little Cayman, easily accessed by a small path through the grape trees with an easy entry point on shore.  It’s also a mooring site that the boats frequent as well.  Cumber’s has the mini wall starting at 20 ft. sloping down to 40ft in the sand.  You can easily cross the sand to the wall, which runs parallel to the mini wall.  Lots and lots of swim throughs for everyone.  It’s best to go with a guide to find the best ones but as long as you can see blue on the other side, it’s pretty safe.  Top of the wall is about 45 ft. and most swim throughs will bring you out into the blue at about 80-100ft.  You might have 2 resident Nassau Groupers join for the dive like stray pups!  Spend a few minutes on the wall and head back across the sand looking for stingrays and eagle rays that love to feed in this area.

https://www.idivecayman.com/cumbers-caves]]></description>
        <Point>
          <coordinates>-80.069450,19.693230</coordinates>
        </Point>
      </Placemark>
      <Placemark>
        <name>Donna's Delight</name>
        <description><![CDATA[https://www.idivecayman.com/donnas-delight]]></description>
        <Point>
          <coordinates>-80.080350,19.686930</coordinates>
        </Point>
      </Placemark>
      <Placemark>
        <name>Dot's Hot Spot</name>
        <description><![CDATA[https://www.idivecayman.com/dots-hot-spot]]></description>
        <Point>
          <coordinates>-80.095320,19.679210</coordinates>
        </Point>
      </Placemark>
      <Placemark>
        <name>Great Wall East</name>
        <description></description>
        <Point>
          <coordinates>-80.083530,19.686710</coordinates>
        </Point>
      </Placemark>
      <Placemark>
        <name>Great Wall West</name>
        <description><![CDATA[Great Wall West-The sheerest of walls starting at a mere 30 ft. and dropping like the side of a building only 50ft due north of the mooring pin, to 6000 ft.  We like to keep you in the top 1% of this wall!  Home to 3 friendly Nassau groupers that will happily accompany you on your dive.  You don’t need to go far on this dive; the best part is just admiring its Greatness!

https://www.idivecayman.com/great-wall-west]]></description>
        <Point>
          <coordinates>-80.084520,19.684740</coordinates>
        </Point>
      </Placemark>
      <Placemark>
        <name>Mike’s Mount</name>
        <description></description>
        <Point>
          <coordinates>-80.068970,19.692780</coordinates>
        </Point>
      </Placemark>
      <Placemark>
        <name>Nancy's Cup of Tea</name>
        <description><![CDATA[aka Magic Roundabout

https://www.idivecayman.com/magic-roundabout]]></description>
        <Point>
          <coordinates>-80.069460,19.693370</coordinates>
        </Point>
      </Placemark>
      <Placemark>
        <name>Randy’s Gazebo</name>
        <description></description>
        <Point>
          <coordinates>-80.082970,19.683670</coordinates>
        </Point>
      </Placemark>
      <Placemark>
        <name>Ringers Wall</name>
        <description></description>
        <Point>
          <coordinates>-80.084397,19.682913</coordinates>
        </Point>
      </Placemark>
      <Placemark>
        <name>The Meadows</name>
        <description><![CDATA[https://www.idivecayman.com/the-meadows]]></description>
        <Point>
          <coordinates>-80.068650,19.692490</coordinates>
        </Point>
      </Placemark>
      <Placemark>
        <name>Windsock</name>
        <description></description>
        <Point>
          <coordinates>-80.091860,19.657140</coordinates>
        </Point>
      </Placemark>
      <Placemark>
        <name>C-53 (Felipe Xicotencatl)</name>
        <description><![CDATA[https://www.wannadive.net/spot/Central_America/Mexico/Yucatan/Cozumel_Isalnd/C-53_Xicotencatl/index.html]]></description>
        <Point>
          <coordinates>-87.000533,20.445200</coordinates>
        </Point>
      </Placemark>
      <Placemark>
        <name>Casa Blanca</name>
        <description></description>
        <Point>
          <coordinates>0.000000,0.000000</coordinates>
        </Point>
      </Placemark>
      <Placemark>
        <name>Casa Blanca Deep</name>
        <description></description>
        <Point>
          <coordinates>0.000000,0.000000</coordinates>
        </Point>
      </Placemark>
      <Placemark>
        <name>Chankanaab Balognes</name>
        <description><![CDATA[https://www.wannadive.net/spot/Central_America/Mexico/Yucatan/Cozumel_Isalnd/Chankanaab_Bolones/index.html]]></description>
        <Point>
          <coordinates>-87.011467,20.436267</coordinates>
        </Point>
      </Placemark>
      <Placemark>
        <name>Chankanaab Pinacle</name>
        <description></description>
        <Point>
          <coordinates>0.000000,0.000000</coordinates>
        </Point>
      </Placemark>
      <Placemark>
        <name>Chankanaab Reef</name>
        <description></description>
        <Point>
          <coordinates>-86.817398,20.439234</coordinates>
        </Point>
      </Placemark>
      <Placemark>
        <name>Chankanaab Shallows</name>
        <description></description>
        <Point>
          <coordinates>-86.817400,20.439230</coordinates>
        </Point>
      </Placemark>
      <Placemark>
        <name>Columbia Deep</name>
        <description><![CDATA[https://www.wannadive.net/spot/Central_America/Mexico/Yucatan/Cozumel_Isalnd/Columbia_Deep/index.html]]></description>
        <Point>
          <coordinates>-87.025283,20.312217</coordinates>
        </Point>
      </Placemark>
      <Placemark>
        <name>Cozumel</name>
        <description></description>
        <Point>
          <coordinates>-86.812709,20.443110</coordinates>
        </Point>
      </Placemark>
      <Placemark>
        <name>Delilah Reef</name>
        <description></description>
        <Point>
          <coordinates>0.000000,0.000000</coordinates>
        </Point>
      </Placemark>
      <Placemark>
        <name>House Reef</name>
        <description><![CDATA[Hotel Cozumel & Resort]]></description>
        <Point>
          <coordinates>-86.961892,20.499033</coordinates>
        </Point>
      </Placemark>
      <Placemark>
        <name>La Francesca</name>
        <description><![CDATA[https://www.wannadive.net/spot/Central_America/Mexico/Yucatan/Cozumel_Isalnd/La_Francesa/index.html]]></description>
        <Point>
          <coordinates>-87.027683,20.350350</coordinates>
        </Point>
      </Placemark>
      <Placemark>
        <name>Las Palmas</name>
        <description></description>
        <Point>
          <coordinates>-86.990533,20.458033</coordinates>
        </Point>
      </Placemark>
      <Placemark>
        <name>Palancar Caves</name>
        <description><![CDATA[https://www.wannadive.net/spot/Central_America/Mexico/Yucatan/Cozumel_Isalnd/Palancar_Caves/index.html]]></description>
        <Point>
          <coordinates>-87.030200,20.326850</coordinates>
        </Point>
      </Placemark>
      <Placemark>
        <name>Palancar Gardens</name>
        <description><![CDATA[https://www.wannadive.net/spot/Central_America/Mexico/Yucatan/Cozumel_Isalnd/Palancar_Gardens/index.html]]></description>
        <Point>
          <coordinates>-87.027433,20.336100</coordinates>
        </Point>
      </Placemark>
      <Placemark>
        <name>Palancar Horseshoe</name>
        <description><![CDATA[https://www.wannadive.net/spot/Central_America/Mexico/Yucatan/Cozumel_Isalnd/Palancar_Horseshoe/index.html]]></description>
        <Point>
          <coordinates>-87.032667,20.326600</coordinates>
        </Point>
      </Placemark>
      <Placemark>
        <name>Paraíso Bajo Reef (Paradise Reef)</name>
        <description></description>
        <Point>
          <coordinates>-86.981467,20.471883</coordinates>
        </Point>
      </Placemark>
      <Placemark>
        <name>Paso del Cedral</name>
        <description><![CDATA[https://www.wannadive.net/spot/Central_America/Mexico/Yucatan/Cozumel_Isalnd/Paso_del_Cedral/index.html]]></description>
        <Point>
          <coordinates>-87.028267,20.354283</coordinates>
        </Point>
      </Placemark>
      <Placemark>
        <name>Punta Tunich Wall</name>
        <description></description>
        <Point>
          <coordinates>0.000000,0.000000</coordinates>
        </Point>
      </Placemark>
      <Placemark>
        <name>San Clemente Reef</name>
        <description><![CDATA[https://www.wannadive.net/spot/Central_America/Mexico/Yucatan/Cozumel_Isalnd/San_Clemente_reef/index.html]]></description>
        <Point>
          <coordinates>-87.026283,20.381700</coordinates>
        </Point>
      </Placemark>
      <Placemark>
        <name>San Francisco Wall</name>
        <description><![CDATA[https://www.wannadive.net/spot/Central_America/Mexico/Yucatan/Cozumel_Isalnd/San_Francisco/index.html]]></description>
        <Point>
          <coordinates>-87.026767,20.370733</coordinates>
        </Point>
      </Placemark>
      <Placemark>
        <name>Santa Rosa Wall</name>
        <description><![CDATA[https://www.wannadive.net/spot/Central_America/Mexico/Yucatan/Cozumel_Isalnd/Santa_Rosa_Wall/index.html]]></description>
        <Point>
          <coordinates>-87.027350,20.365517</coordinates>
        </Point>
      </Placemark>
      <Placemark>
        <name>Tormentos Reef</name>
        <description><![CDATA[https://www.wannadive.net/spot/Central_America/Mexico/Yucatan/Cozumel_Isalnd/Tormentos_Reef/index.html]]></description>
        <Point>
          <coordinates>-87.004650,20.440750</coordinates>
        </Point>
      </Placemark>
      <Placemark>
        <name>Villa Blanca</name>
        <description><![CDATA[https://www.wannadive.net/spot/Central_America/Mexico/Yucatan/Cozumel_Isalnd/Villa_Blanca/index.html]]></description>
        <Point>
          <coordinates>-86.816258,20.439485</coordinates>
        </Point>
      </Placemark>
      <Placemark>
        <name>Yucab Reef</name>
        <description><![CDATA[https://www.wannadive.net/spot/Central_America/Mexico/Yucatan/Cozumel_Isalnd/Yucab_Reef/index.html]]></description>
        <Point>
          <coordinates>-87.021200,20.405500</coordinates>
        </Point>
      </Placemark>
      <Placemark>
        <name>Atlantis House Reef</name>
        <description></description>
        <Point>
          <coordinates>123.278627,9.200714</coordinates>
        </Point>
      </Placemark>
      <Placemark>
        <name>Dauin North</name>
        <description><![CDATA[Only a 5 minute boat ride away is the Dauin Sanctuary. This huge coral reef is home to different kinds of anemone fish, small barra-cudas, turtles, groupers, and many other colorful fish. The shallow area is a beautiful hard coral garden which is also nice for snorkeling. Because there is not much current present in this area, it is an ideal site for Open waterdivers, refresher courses and Orientation dives. Max Depth is 18 meters.

https://www.sea-explorers.com/dauin/dumaguete-dive-sites/]]></description>
        <Point>
          <coordinates>123.265256,9.185861</coordinates>
        </Point>
      </Placemark>
      <Placemark>
        <name>Dauin South</name>
        <description><![CDATA[Only a 5 minute boat ride away is the Dauin Sanctuary. This huge coral reef is home to different kinds of anemone fish, small barra-cudas, turtles, groupers, and many other colorful fish. The shallow area is a beautiful hard coral garden which is also nice for snorkeling. Because there is not much current present in this area, it is an ideal site for Open waterdivers, refresher courses and Orientation dives. Max Depth is 18 meters.

https://www.sea-explorers.com/dauin/dumaguete-dive-sites/]]></description>
        <Point>
          <coordinates>123.265256,9.185861</coordinates>
        </Point>
      </Placemark>
      <Placemark>
        <name>Pura Vida Housereef (Sahara)</name>
        <description><![CDATA[Located just in front of the resort is the Pura Vida housereef. What used to be an underwater “sahara” has now become small oasis for marine life. This artificial reef consists of several wrecks, interesting concrete blocks, and a steel pyramid were lionfish, sea-horses, stingrays, snappers, and batfish are at home. Sometimes rare species are also found here. This site is also suitable for night diving.

https://www.sea-explorers.com/dauin/dumaguete-dive-sites/]]></description>
        <Point>
          <coordinates>123.271606,9.190911</coordinates>
        </Point>
      </Placemark>
      <Placemark>
        <name>Bird Rock</name>
        <description></description>
        <Point>
          <coordinates>0.000000,0.000000</coordinates>
        </Point>
      </Placemark>
      <Placemark>
        <name>Crane Point</name>
        <description></description>
        <Point>
          <coordinates>0.000000,0.000000</coordinates>
        </Point>
      </Placemark>
      <Placemark>
        <name>Eagles Reef</name>
        <description></description>
        <Point>
          <coordinates>0.000000,0.000000</coordinates>
        </Point>
      </Placemark>
      <Placemark>
        <name>Eel Cove</name>
        <description></description>
        <Point>
          <coordinates>-118.513434,33.457149</coordinates>
        </Point>
      </Placemark>
      <Placemark>
        <name>Hen Rock</name>
        <description></description>
        <Point>
          <coordinates>0.000000,0.000000</coordinates>
        </Point>
      </Placemark>
      <Placemark>
        <name>Sail Boat Cove</name>
        <description></description>
        <Point>
          <coordinates>-118.423550,33.388602</coordinates>
        </Point>
      </Placemark>
      <Placemark>
        <name>Ship Rock</name>
        <description></description>
        <Point>
          <coordinates>0.000000,0.000000</coordinates>
        </Point>
      </Placemark>
      <Placemark>
        <name>Pennyroyal</name>
        <description></description>
        <Point>
          <coordinates>0.000000,0.000000</coordinates>
        </Point>
      </Placemark>
      <Placemark>
        <name>Falling Rock Park</name>
        <description></description>
        <Point>
          <coordinates>-85.407928,38.428923</coordinates>
        </Point>
      </Placemark>
      <Placemark>
        <name>Breakwater</name>
        <description></description>
        <Point>
          <coordinates>-121.915984,36.625670</coordinates>
        </Point>
      </Placemark>
      <Placemark>
        <name>Dali's Wall</name>
        <description><![CDATA[Also known as Stillwater Cove

https://cadivingnews.com/dive-spot/dive-spot-monterey-stillwater-cove-dalis-wall/]]></description>
        <Point>
          <coordinates>-121.946900,36.561050</coordinates>
        </Point>
      </Placemark>
      <Placemark>
        <name>Eric's Pinnacle</name>
        <description><![CDATA[https://cadivingnews.com/dive-spot/monterey-bays-erics-pinnacle/]]></description>
        <Point>
          <coordinates>-121.918350,36.634067</coordinates>
        </Point>
      </Placemark>
      <Placemark>
        <name>Lover’s Point</name>
        <description></description>
        <Point>
          <coordinates>0.000000,0.000000</coordinates>
        </Point>
      </Placemark>
      <Placemark>
        <name>Monterey State Beach</name>
        <description></description>
        <Point>
          <coordinates>-121.889042,36.601804</coordinates>
        </Point>
      </Placemark>
      <Placemark>
        <name>The Seas at Epcot</name>
        <description></description>
        <Point>
          <coordinates>-81.550785,28.375571</coordinates>
        </Point>
      </Placemark>
      <Placemark>
        <name>Black Bart</name>
        <description><![CDATA[Sunk: 7/16/1993
Depth: 79ft
Relief: 25ft
Length: 180ft

Oil rig supply ship
]]></description>
        <Point>
          <coordinates>-85.824067,30.060367</coordinates>
        </Point>
      </Placemark>
      <Placemark>
        <name>Chippewa</name>
        <description><![CDATA[Sunk: 2/8/1990
Depth: 102ft
Relief: 28ft
Length: 204ft

Tugboat]]></description>
        <Point>
          <coordinates>-85.807733,29.961267</coordinates>
        </Point>
      </Placemark>
      <Placemark>
        <name>DuPont Span #3</name>
        <description><![CDATA[Sunk: 12/19/2008
Tons: 375
Depth: 90ft
Relief: 35ft
Length: 180ft
Width: 25ft

LARGE INTACT BRIDGE SPAN 180'L X 25'W X 35'H-FUNDED BY FDOT , 3 OF 3 SPANS]]></description>
        <Point>
          <coordinates>-85.841650,29.975300</coordinates>
        </Point>
      </Placemark>
      <Placemark>
        <name>Hathaway Span #12 Midway</name>
        <description><![CDATA[Sunk: 5/9/1988
Tons: 360
Depth: 72ft
Relief: 27ft

http://blogs.ifas.ufl.edu/bayco/reef_118/]]></description>
        <Point>
          <coordinates>-85.731550,30.046833</coordinates>
        </Point>
      </Placemark>
      <Placemark>
        <name>Hathaway Span #14 Warsaw</name>
        <description><![CDATA[Bridge Span

BA0076

Weight: 360 tons
Depth: 75 feet
Relief: 20 feet

Latitude: 30° 4.291' N
Longitude: 85° 48.876' W

http://myfwc.com/media/131585/reefs.pdf]]></description>
        <Point>
          <coordinates>-85.814572,30.071678</coordinates>
        </Point>
      </Placemark>
      <Placemark>
        <name>Hovercraft-Llcat</name>
        <description><![CDATA[Hovercraft Aluminum 100'

BA0118

Depth: 74 feet
Relief: 10 feet

Longitude: 30° 4.249' N
Latitude: 85° 48.725' W

http://myfwc.com/media/131585/reefs.pdf]]></description>
        <Point>
          <coordinates>-85.812083,30.070705</coordinates>
        </Point>
      </Placemark>
      <Placemark>
        <name>Red Sea Tugboat</name>
        <description><![CDATA[Red Sea Tugboat

BA0230

125' Steel Hulled Ocean Tugboat sits upright

Depth: 74 feet
Relief: 36 feet

Latitude: 30° 0.958' N (3000.958)
Longitude: 85° 42.003' W (8542.003)

http://myfwc.com/media/131585/reefs.pdf]]></description>
        <Point>
          <coordinates>-85.700050,30.015967</coordinates>
        </Point>
      </Placemark>
      <Placemark>
        <name>USS Grierson (Liberty Ship)</name>
        <description></description>
        <Point>
          <coordinates>-85.712267,29.984583</coordinates>
        </Point>
      </Placemark>
      <Placemark>
        <name>USS Strength</name>
        <description></description>
        <Point>
          <coordinates>-85.708533,30.032405</coordinates>
        </Point>
      </Placemark>
      <Placemark>
        <name>Abbey Too</name>
        <description></description>
        <Point>
          <coordinates>0.000000,0.000000</coordinates>
        </Point>
      </Placemark>
      <Placemark>
        <name>Ancient Mariner / Berry Patch</name>
        <description></description>
        <Point>
          <coordinates>0.000000,0.000000</coordinates>
        </Point>
      </Placemark>
      <Placemark>
        <name>Copenhagen</name>
        <description></description>
        <Point>
          <coordinates>0.000000,0.000000</coordinates>
        </Point>
      </Placemark>
      <Placemark>
        <name>Nursery Reef</name>
        <description></description>
        <Point>
          <coordinates>0.000000,0.000000</coordinates>
        </Point>
      </Placemark>
      <Placemark>
        <name>Okinawa</name>
        <description></description>
        <Point>
          <coordinates>0.000000,0.000000</coordinates>
        </Point>
      </Placemark>
      <Placemark>
        <name>Opal Towers Reef</name>
        <description></description>
        <Point>
          <coordinates>0.000000,0.000000</coordinates>
        </Point>
      </Placemark>
      <Placemark>
        <name>Sanctuary Reef</name>
        <description></description>
        <Point>
          <coordinates>0.000000,0.000000</coordinates>
        </Point>
      </Placemark>
      <Placemark>
        <name>Sea Emperor</name>
        <description></description>
        <Point>
          <coordinates>0.000000,0.000000</coordinates>
        </Point>
      </Placemark>
      <Placemark>
        <name>Adam’s Cave</name>
        <description></description>
        <Point>
          <coordinates>-119.774900,34.018389</coordinates>
        </Point>
      </Placemark>
      <Placemark>
        <name>Peacock (Spirit Of America)</name>
        <description><![CDATA[The Peacock is somewhat of a mystery wreck. Some believe she was the Spirit of America, but there is no definitive evidence either way to prove or disprove this claim. It is known she’s a WWII era minesweeper with a composite wood hull and steel frame. If she is the Peacock, she started her career at the end of the war and ended it as a training ship before being decommissioned in 1955.

In the early 60’s she was used for towing. By the late 60’s she was sold again and her history becomes very hazy. A number of stories abound but one of the most interesting is that she was a floating bordello serving Long Beach/San Pedro. Early divers found a fair amount of red cloth and mirrors which gave “credence” to the theory.

The wreck lies upright in about 65 FSW of water with her stern pointing towards shore. Since she’s in an anchorage, the sandy dive site is quite well protected. All the structures have collapsed but there is relief off the bottom with numerous ledges and holes.

http://www.xtremescuba.com/wrecks.html]]></description>
        <Point>
          <coordinates>-119.774900,34.018389</coordinates>
        </Point>
      </Placemark>
      <Placemark>
        <name>Potato Pinnacle</name>
        <description></description>
        <Point>
          <coordinates>-119.774900,34.018389</coordinates>
        </Point>
      </Placemark>
      <Placemark>
        <name>Cowells Beach</name>
        <description></description>
        <Point>
          <coordinates>0.000000,0.000000</coordinates>
        </Point>
      </Placemark>
      <Placemark>
        <name>Devil‘s Den</name>
        <description></description>
        <Point>
          <coordinates>-82.476296,29.407698</coordinates>
        </Point>
      </Placemark>
    </Folder>
  </Document>
</kml>
